[
  { "id": "s01", "name": "สถานีตรวจวัดแม่น้ำเจ้าพระยา (บางกอกน้อย)", "province": "กรุงเทพมหานคร", "lat": 13.7694, "lng": 100.4887, "level": "fair", "bod": 12.4, "cod": 48.2, "ph": 7.1, "tss": 38.5, "timestamp": "2026-03-18T06:00:00Z" },
  { "id": "s02", "name": "สถานีตรวจวัดแม่น้ำเจ้าพระยา (สะพานพระราม 8)", "province": "กรุงเทพมหานคร", "lat": 13.7725, "lng": 100.5056, "level": "poor", "bod": 22.1, "cod": 89.4, "ph": 6.8, "tss": 65.2, "timestamp": "2026-03-18T06:00:00Z" },
  { "id": "s03", "name": "สถานีตรวจวัดคลองแสนแสบ (มีนบุรี)", "province": "กรุงเทพมหานคร", "lat": 13.8012, "lng": 100.7012, "level": "critical", "bod": 48.3, "cod": 195.2, "ph": 6.2, "tss": 112.4, "timestamp": "2026-03-18T06:00:00Z" },
  { "id": "s04", "name": "สถานีตรวจวัดแม่น้ำปิง (เชียงใหม่)", "province": "เชียงใหม่", "lat": 18.7950, "lng": 98.9900, "level": "good", "bod": 4.2, "cod": 18.5, "ph": 7.4, "tss": 15.3, "timestamp": "2026-03-18T06:00:00Z" },
  { "id": "s05", "name": "สถานีตรวจวัดแม่น้ำมูล (อุบลราชธานี)", "province": "อุบลราชธานี", "lat": 15.2448, "lng": 104.8472, "level": "excellent", "bod": 1.8, "cod": 8.2, "ph": 7.6, "tss": 8.1, "timestamp": "2026-03-18T06:00:00Z" },
  { "id": "s06", "name": "สถานีตรวจวัดคลองอู่ตะเภา (หาดใหญ่)", "province": "สงขลา", "lat": 7.0200, "lng": 100.4600, "level": "fair", "bod": 11.5, "cod": 42.0, "ph": 7.0, "tss": 28.9, "timestamp": "2026-03-18T06:00:00Z" },
  { "id": "s07", "name": "สถานีตรวจวัดอ่าวพัทยา", "province": "ชลบุรี", "lat": 12.9350, "lng": 100.8780, "level": "good", "bod": 5.1, "cod": 21.4, "ph": 7.5, "tss": 18.7, "timestamp": "2026-03-18T06:00:00Z" },
  { "id": "s08", "name": "สถานีตรวจวัดแม่น้ำท่าจีน (สุพรรณบุรี)", "province": "สุพรรณบุรี", "lat": 14.4695, "lng": 100.1176, "level": "poor", "bod": 19.8, "cod": 76.5, "ph": 6.6, "tss": 58.3, "timestamp": "2026-03-18T06:00:00Z" },
  { "id": "s09", "name": "สถานีตรวจวัดแม่น้ำน่าน (พิษณุโลก)", "province": "พิษณุโลก", "lat": 16.8300, "lng": 100.2700, "level": "excellent", "bod": 2.1, "cod": 9.4, "ph": 7.5, "tss": 9.8, "timestamp": "2026-03-18T06:00:00Z" },
  { "id": "s10", "name": "สถานีตรวจวัดแม่น้ำชี (ขอนแก่น)", "province": "ขอนแก่น", "lat": 16.3800, "lng": 102.8100, "level": "fair", "bod": 13.2, "cod": 52.1, "ph": 7.0, "tss": 42.3, "timestamp": "2026-03-18T06:00:00Z" },
  { "id": "s11", "name": "สถานีตรวจวัดแม่น้ำโขง (หนองคาย)", "province": "หนองคาย", "lat": 17.8700, "lng": 102.7200, "level": "good", "bod": 3.8, "cod": 16.2, "ph": 7.3, "tss": 14.5, "timestamp": "2026-03-18T06:00:00Z" },
  { "id": "s12", "name": "สถานีตรวจวัดแม่น้ำยม (สุโขทัย)", "province": "สุโขทัย", "lat": 17.0068, "lng": 99.8265, "level": "good", "bod": 5.5, "cod": 22.8, "ph": 7.2, "tss": 20.1, "timestamp": "2026-03-18T06:00:00Z" },
  { "id": "s13", "name": "สถานีตรวจวัดคลองระพีพัฒน์ (ปทุมธานี)", "province": "ปทุมธานี", "lat": 14.0500, "lng": 100.6200, "level": "poor", "bod": 18.4, "cod": 72.3, "ph": 6.7, "tss": 54.6, "timestamp": "2026-03-18T06:00:00Z" },
  { "id": "s14", "name": "สถานีตรวจวัดแม่น้ำบางปะกง (ฉะเชิงเทรา)", "province": "ฉะเชิงเทรา", "lat": 13.6900, "lng": 101.0700, "level": "fair", "bod": 14.7, "cod": 58.9, "ph": 6.9, "tss": 47.2, "timestamp": "2026-03-18T06:00:00Z" },
  { "id": "s15", "name": "สถานีตรวจวัดแม่น้ำตาปี (สุราษฎร์ธานี)", "province": "สุราษฎร์ธานี", "lat": 9.1200, "lng": 99.3000, "level": "good", "bod": 4.9, "cod": 19.7, "ph": 7.4, "tss": 17.3, "timestamp": "2026-03-18T06:00:00Z" },
  { "id": "s16", "name": "สถานีตรวจวัดคลองบางหลวง (กรุงเทพฯ)", "province": "กรุงเทพมหานคร", "lat": 13.7450, "lng": 100.4600, "level": "critical", "bod": 52.1, "cod": 210.4, "ph": 6.1, "tss": 125.8, "timestamp": "2026-03-18T06:00:00Z" },
  { "id": "s17", "name": "สถานีตรวจวัดแม่น้ำกวง (ลำพูน)", "province": "ลำพูน", "lat": 18.5744, "lng": 99.0087, "level": "excellent", "bod": 1.5, "cod": 6.8, "ph": 7.7, "tss": 6.4, "timestamp": "2026-03-18T06:00:00Z" },
  { "id": "s18", "name": "สถานีตรวจวัดแม่น้ำเพชรบุรี", "province": "เพชรบุรี", "lat": 13.1300, "lng": 99.9200, "level": "fair", "bod": 10.8, "cod": 44.5, "ph": 7.1, "tss": 35.9, "timestamp": "2026-03-18T06:00:00Z" },
  { "id": "s19", "name": "สถานีตรวจวัดทะเลสาบสงขลา", "province": "สงขลา", "lat": 7.5500, "lng": 100.4800, "level": "poor", "bod": 21.3, "cod": 85.7, "ph": 6.7, "tss": 62.4, "timestamp": "2026-03-18T06:00:00Z" },
  { "id": "s20", "name": "สถานีตรวจวัดแม่น้ำกก (เชียงราย)", "province": "เชียงราย", "lat": 19.9100, "lng": 99.8300, "level": "good", "bod": 4.4, "cod": 18.9, "ph": 7.3, "tss": 16.2, "timestamp": "2026-03-18T06:00:00Z" },
  { "id": "s21", "name": "สถานีตรวจวัดแม่น้ำเจ้าพระยา (ปากน้ำ สมุทรปราการ)", "province": "สมุทรปราการ", "lat": 13.5340, "lng": 100.5810, "level": "poor", "bod": 24.6, "cod": 98.3, "ph": 6.6, "tss": 72.1, "timestamp": "2026-03-18T06:00:00Z" },
  { "id": "s22", "name": "สถานีตรวจวัดแม่น้ำเจ้าพระยา (อยุธยา)", "province": "พระนครศรีอยุธยา", "lat": 14.3560, "lng": 100.5580, "level": "fair", "bod": 15.3, "cod": 61.2, "ph": 6.9, "tss": 46.8, "timestamp": "2026-03-18T06:00:00Z" },
  { "id": "s23", "name": "สถานีตรวจวัดคลองแสนแสบ (บึงกุ่ม)", "province": "กรุงเทพมหานคร", "lat": 13.7860, "lng": 100.6380, "level": "critical", "bod": 55.2, "cod": 221.8, "ph": 6.0, "tss": 138.5, "timestamp": "2026-03-18T06:00:00Z" },
  { "id": "s24", "name": "สถานีตรวจวัดคลองมหานาค (กรุงเทพฯ)", "province": "กรุงเทพมหานคร", "lat": 13.7580, "lng": 100.5230, "level": "critical", "bod": 47.8, "cod": 192.4, "ph": 6.2, "tss": 115.6, "timestamp": "2026-03-18T06:00:00Z" },
  { "id": "s25", "name": "สถานีตรวจวัดแม่น้ำแม่กลอง (ราชบุรี)", "province": "ราชบุรี", "lat": 13.5290, "lng": 99.8170, "level": "fair", "bod": 11.9, "cod": 47.6, "ph": 7.0, "tss": 36.4, "timestamp": "2026-03-18T06:00:00Z" },
  { "id": "s26", "name": "สถานีตรวจวัดแม่น้ำปิง (ตาก)", "province": "ตาก", "lat": 16.8760, "lng": 99.1270, "level": "excellent", "bod": 2.5, "cod": 10.8, "ph": 7.6, "tss": 10.2, "timestamp": "2026-03-18T06:00:00Z" },
  { "id": "s27", "name": "สถานีตรวจวัดแม่น้ำวัง (ลำปาง)", "province": "ลำปาง", "lat": 18.2940, "lng": 99.4920, "level": "good", "bod": 4.7, "cod": 19.4, "ph": 7.3, "tss": 17.8, "timestamp": "2026-03-18T06:00:00Z" },
  { "id": "s28", "name": "สถานีตรวจวัดแม่น้ำยม (พิษณุโลก)", "province": "พิษณุโลก", "lat": 16.8550, "lng": 100.2210, "level": "fair", "bod": 13.8, "cod": 55.3, "ph": 6.9, "tss": 44.7, "timestamp": "2026-03-18T06:00:00Z" },
  { "id": "s29", "name": "สถานีตรวจวัดแม่น้ำน่าน (อุตรดิตถ์)", "province": "อุตรดิตถ์", "lat": 17.6230, "lng": 100.0990, "level": "excellent", "bod": 1.9, "cod": 8.7, "ph": 7.7, "tss": 7.6, "timestamp": "2026-03-18T06:00:00Z" },
  { "id": "s30", "name": "สถานีตรวจวัดแม่น้ำโขง (เชียงราย)", "province": "เชียงราย", "lat": 20.2850, "lng": 100.0920, "level": "excellent", "bod": 1.6, "cod": 7.3, "ph": 7.8, "tss": 6.9, "timestamp": "2026-03-18T06:00:00Z" },
  { "id": "s31", "name": "สถานีตรวจวัดแม่น้ำมูล (บุรีรัมย์)", "province": "บุรีรัมย์", "lat": 14.9930, "lng": 103.1020, "level": "fair", "bod": 12.7, "cod": 50.8, "ph": 7.0, "tss": 40.1, "timestamp": "2026-03-18T06:00:00Z" },
  { "id": "s32", "name": "สถานีตรวจวัดแม่น้ำชี (มหาสารคาม)", "province": "มหาสารคาม", "lat": 16.1640, "lng": 103.2970, "level": "poor", "bod": 20.5, "cod": 82.1, "ph": 6.7, "tss": 60.3, "timestamp": "2026-03-18T06:00:00Z" },
  { "id": "s33", "name": "สถานีตรวจวัดแม่น้ำโขง (นครพนม)", "province": "นครพนม", "lat": 17.3870, "lng": 104.7680, "level": "good", "bod": 3.6, "cod": 15.4, "ph": 7.4, "tss": 13.8, "timestamp": "2026-03-18T06:00:00Z" },
  { "id": "s34", "name": "สถานีตรวจวัดแม่น้ำโขง (มุกดาหาร)", "province": "มุกดาหาร", "lat": 16.5430, "lng": 104.7230, "level": "good", "bod": 4.1, "cod": 17.3, "ph": 7.3, "tss": 15.7, "timestamp": "2026-03-18T06:00:00Z" },
  { "id": "s35", "name": "สถานีตรวจวัดแม่น้ำบางปะกง (ปราจีนบุรี)", "province": "ปราจีนบุรี", "lat": 14.0520, "lng": 101.3680, "level": "fair", "bod": 11.4, "cod": 45.7, "ph": 7.1, "tss": 37.2, "timestamp": "2026-03-18T06:00:00Z" },
  { "id": "s36", "name": "สถานีตรวจวัดอ่าวไทย (ระยอง)", "province": "ระยอง", "lat": 12.6740, "lng": 101.4650, "level": "good", "bod": 5.8, "cod": 23.5, "ph": 7.5, "tss": 19.3, "timestamp": "2026-03-18T06:00:00Z" },
  { "id": "s37", "name": "สถานีตรวจวัดแม่น้ำตราด", "province": "ตราด", "lat": 12.2530, "lng": 102.5270, "level": "excellent", "bod": 2.2, "cod": 9.8, "ph": 7.6, "tss": 8.4, "timestamp": "2026-03-18T06:00:00Z" },
  { "id": "s38", "name": "สถานีตรวจวัดแม่น้ำท่าจีน (สมุทรสาคร)", "province": "สมุทรสาคร", "lat": 13.5520, "lng": 100.2680, "level": "poor", "bod": 23.4, "cod": 93.7, "ph": 6.6, "tss": 68.9, "timestamp": "2026-03-18T06:00:00Z" },
  { "id": "s39", "name": "สถานีตรวจวัดคลองลาดกระบัง (กรุงเทพฯ)", "province": "กรุงเทพมหานคร", "lat": 13.7330, "lng": 100.7820, "level": "critical", "bod": 43.6, "cod": 175.2, "ph": 6.3, "tss": 108.7, "timestamp": "2026-03-18T06:00:00Z" },
  { "id": "s40", "name": "สถานีตรวจวัดแม่น้ำกลอง (สมุทรสงคราม)", "province": "สมุทรสงคราม", "lat": 13.4080, "lng": 100.0020, "level": "fair", "bod": 16.1, "cod": 64.4, "ph": 6.8, "tss": 51.3, "timestamp": "2026-03-18T06:00:00Z" },
  { "id": "s41", "name": "สถานีตรวจวัดแม่น้ำตาปี (นครศรีธรรมราช)", "province": "นครศรีธรรมราช", "lat": 8.4140, "lng": 99.9780, "level": "fair", "bod": 14.2, "cod": 56.8, "ph": 7.0, "tss": 45.1, "timestamp": "2026-03-18T06:00:00Z" },
  { "id": "s42", "name": "สถานีตรวจวัดคลองปากพนัง (นครศรีธรรมราช)", "province": "นครศรีธรรมราช", "lat": 8.3520, "lng": 100.1970, "level": "poor", "bod": 25.7, "cod": 102.8, "ph": 6.5, "tss": 75.4, "timestamp": "2026-03-18T06:00:00Z" },
  { "id": "s43", "name": "สถานีตรวจวัดแม่น้ำกระบี่", "province": "กระบี่", "lat": 8.0740, "lng": 98.8930, "level": "good", "bod": 6.2, "cod": 25.1, "ph": 7.4, "tss": 22.6, "timestamp": "2026-03-18T06:00:00Z" },
  { "id": "s44", "name": "สถานีตรวจวัดแม่น้ำตรัง", "province": "ตรัง", "lat": 7.5480, "lng": 99.6050, "level": "excellent", "bod": 2.4, "cod": 10.3, "ph": 7.6, "tss": 9.1, "timestamp": "2026-03-18T06:00:00Z" },
  { "id": "s45", "name": "สถานีตรวจวัดคลองอู่ตะเภา (สงขลา)", "province": "สงขลา", "lat": 7.2040, "lng": 100.5930, "level": "poor", "bod": 26.3, "cod": 105.2, "ph": 6.5, "tss": 77.8, "timestamp": "2026-03-18T06:00:00Z" },
  { "id": "s46", "name": "สถานีตรวจวัดแม่น้ำสายบุรี (ปัตตานี)", "province": "ปัตตานี", "lat": 6.8620, "lng": 101.2350, "level": "fair", "bod": 13.6, "cod": 54.4, "ph": 7.0, "tss": 43.5, "timestamp": "2026-03-18T06:00:00Z" },
  { "id": "s47", "name": "สถานีตรวจวัดแม่น้ำปัตตานี (ยะลา)", "province": "ยะลา", "lat": 6.5560, "lng": 101.2940, "level": "good", "bod": 5.4, "cod": 21.7, "ph": 7.3, "tss": 19.8, "timestamp": "2026-03-18T06:00:00Z" },
  { "id": "s48", "name": "สถานีตรวจวัดแม่น้ำโกลก (นราธิวาส)", "province": "นราธิวาส", "lat": 6.4180, "lng": 101.8150, "level": "fair", "bod": 10.6, "cod": 42.3, "ph": 7.1, "tss": 33.7, "timestamp": "2026-03-18T06:00:00Z" },
  { "id": "s49", "name": "สถานีตรวจวัดแม่น้ำสตูล", "province": "สตูล", "lat": 6.6140, "lng": 100.0590, "level": "excellent", "bod": 2.0, "cod": 8.9, "ph": 7.7, "tss": 7.3, "timestamp": "2026-03-18T06:00:00Z" },
  { "id": "s50", "name": "สถานีตรวจวัดอ่าวภูเก็ต (ป่าตอง)", "province": "ภูเก็ต", "lat": 7.8970, "lng": 98.2980, "level": "good", "bod": 5.0, "cod": 20.4, "ph": 7.4, "tss": 18.1, "timestamp": "2026-03-18T06:00:00Z" },
  { "id": "s51", "name": "สถานีตรวจวัดแม่น้ำชุมพร", "province": "ชุมพร", "lat": 10.4820, "lng": 99.1640, "level": "excellent", "bod": 2.3, "cod": 9.5, "ph": 7.5, "tss": 8.8, "timestamp": "2026-03-18T06:00:00Z" },
  { "id": "s52", "name": "สถานีตรวจวัดแม่น้ำกระบุรี (ระนอง)", "province": "ระนอง", "lat": 9.9640, "lng": 98.6210, "level": "excellent", "bod": 1.7, "cod": 7.4, "ph": 7.8, "tss": 6.7, "timestamp": "2026-03-18T06:00:00Z" },
  { "id": "s53", "name": "สถานีตรวจวัดแม่น้ำเจ้าพระยา (นครสวรรค์)", "province": "นครสวรรค์", "lat": 15.7020, "lng": 100.1130, "level": "good", "bod": 6.3, "cod": 25.7, "ph": 7.2, "tss": 23.4, "timestamp": "2026-03-18T06:00:00Z" },
  { "id": "s54", "name": "สถานีตรวจวัดแม่น้ำน้ำพอง (ขอนแก่น)", "province": "ขอนแก่น", "lat": 16.5180, "lng": 102.9560, "level": "fair", "bod": 11.1, "cod": 44.5, "ph": 7.1, "tss": 35.6, "timestamp": "2026-03-18T06:00:00Z" },
  { "id": "s55", "name": "สถานีตรวจวัดแม่น้ำมูล (นครราชสีมา)", "province": "นครราชสีมา", "lat": 14.9710, "lng": 102.1090, "level": "poor", "bod": 22.8, "cod": 91.3, "ph": 6.7, "tss": 66.9, "timestamp": "2026-03-18T06:00:00Z" },
  { "id": "s56", "name": "สถานีตรวจวัดแม่น้ำลำตะคอง (นครราชสีมา)", "province": "นครราชสีมา", "lat": 14.9580, "lng": 102.0770, "level": "poor", "bod": 27.4, "cod": 109.7, "ph": 6.5, "tss": 80.2, "timestamp": "2026-03-18T06:00:00Z" },
  { "id": "s57", "name": "สถานีตรวจวัดแม่น้ำสงคราม (สกลนคร)", "province": "สกลนคร", "lat": 17.1490, "lng": 104.1280, "level": "fair", "bod": 12.3, "cod": 49.1, "ph": 7.0, "tss": 39.4, "timestamp": "2026-03-18T06:00:00Z" },
  { "id": "s58", "name": "สถานีตรวจวัดแม่น้ำเลย (เลย)", "province": "เลย", "lat": 17.4870, "lng": 101.7230, "level": "excellent", "bod": 1.4, "cod": 6.1, "ph": 7.8, "tss": 5.8, "timestamp": "2026-03-18T06:00:00Z" },
  { "id": "s59", "name": "สถานีตรวจวัดแม่น้ำลพบุรี (ลพบุรี)", "province": "ลพบุรี", "lat": 14.7960, "lng": 100.6490, "level": "fair", "bod": 16.8, "cod": 67.2, "ph": 6.8, "tss": 53.1, "timestamp": "2026-03-18T06:00:00Z" },
  { "id": "s60", "name": "สถานีตรวจวัดแม่น้ำปราจีนบุรี", "province": "ปราจีนบุรี", "lat": 14.0480, "lng": 101.3550, "level": "good", "bod": 7.1, "cod": 28.4, "ph": 7.2, "tss": 26.5, "timestamp": "2026-03-18T06:00:00Z" }
]
